[
  {
    "name": "Varanasi, Uttar Pradesh",
    "description": "Banarasi silk brocade",
    "lat": 25.3176,
    "lng": 82.9739,
    "link": "https://www.google.com/maps?q=Varanasi"
  },
  {
    "name": "Kanchipuram, Tamil Nadu",
    "description": "Kanchipuram silk sarees",
    "lat": 12.8352,
    "lng": 79.7036,
    "link": "https://www.google.com/maps?q=Kanchipuram"
  },
  {
    "name": "Pochampally, Telangana",
    "description": "Ikat weave sarees",
    "lat": 17.3517,
    "lng": 78.8083,
    "link": "https://www.google.com/maps?q=Pochampally"
  },
  {
    "name": "Sualkuchi, Assam",
    "description": "Muga silk",
    "lat": 26.1892,
    "lng": 91.5785,
    "link": "https://www.google.com/maps?q=Sualkuchi"
  },
  {
    "name": "Chanderi, Madhya Pradesh",
    "description": "Silk-cotton weaves",
    "lat": 24.7151,
    "lng": 78.1389,
    "link": "https://www.google.com/maps?q=Chanderi"
  },
  {
    "name": "Bhubaneswar, Odisha",
    "description": "Sambalpuri Ikat",
    "lat": 20.2961,
    "lng": 85.8245,
    "link": "https://www.google.com/maps?q=Bhubaneswar"
  },
  {
    "name": "Kutch, Gujarat",
    "description": "Bandhani and mirror-work",
    "lat": 23.7337,
    "lng": 69.8597,
    "link": "https://www.google.com/maps?q=Kutch"
  },
  {
    "name": "Shantipur & Phulia, West Bengal",
    "description": "Jamdani & cotton sarees",
    "lat": 23.2500,
    "lng": 88.4300,
    "link": "https://www.google.com/maps?q=Shantipur"
  },
  {
    "name": "Bhagalpur, Bihar",
    "description": "Tussar silk",
    "lat": 25.3478,
    "lng": 86.9824,
    "link": "https://www.google.com/maps?q=Bhagalpur"
  },
  {
    "name": "Arani, Tamil Nadu",
    "description": "Silk weaving hub",
    "lat": 12.6692,
    "lng": 79.2850,
    "link": "https://www.google.com/maps?q=Arani"
  },
  {
    "name": "Gopalpur, Odisha",
    "description": "Tussar weaving villages",
    "lat": 19.2686,
    "lng": 84.9052,
    "link": "https://www.google.com/maps?q=Gopalpur"
  },
  {
    "name": "Venkatagiri, Andhra Pradesh",
    "description": "Zari-embellished cotton/silk sarees",
    "lat": 13.9616,
    "lng": 79.5828,
    "link": "https://www.google.com/maps?q=Venkatagiri"
  },
  {
    "name": "Bagh, Madhya Pradesh",
    "description": "Hand block printed fabrics",
    "lat": 22.3606,
    "lng": 74.7866,
    "link": "https://www.google.com/maps?q=Bagh"
  },
  {
    "name": "Panipat, Haryana",
    "description": "Handwoven home textiles",
    "lat": 29.3909,
    "lng": 76.9635,
    "link": "https://www.google.com/maps?q=Panipat"
  },
  {
    "name": "Erode, Tamil Nadu",
    "description": "Cotton fabrics & lungis",
    "lat": 11.3410,
    "lng": 77.7172,
    "link": "https://www.google.com/maps?q=Erode"
  },
  {
    "name": "Maheshwar, Madhya Pradesh",
    "description": "Maheshwari textiles",
    "lat": 22.1820,
    "lng": 75.5884,
    "link": "https://www.google.com/maps?q=Maheshwar"
  },
  {
    "name": "Karur, Tamil Nadu",
    "description": "Home furnishing textiles",
    "lat": 10.9601,
    "lng": 78.0766,
    "link": "https://www.google.com/maps?q=Karur"
  },
  {
    "name": "Kullu, Himachal Pradesh",
    "description": "Woolen handloom shawls",
    "lat": 31.9576,
    "lng": 77.1095,
    "link": "https://www.google.com/maps?q=Kullu"
  }
]